{
  "metadata" : {
    "browser_name" : "Safari",
    "browser_version" : "26.5",
    "data_type" : "history",
    "export_time_usec" : 1776540258612589,
    "schema_version" : 1
  },
  "history" : [
    {
      "url" : "https://www.netflix.com/",
      "time_usec" : 1773886554864684,
      "visit_count" : 1,
      "title" : "Netflix - Watch TV Shows Online, Watch Movies Online"
    },
    {
      "url" : "https://www.netflix.com/login?serverState=%7B%22realm%22%3A%22growth%22%2C%22name%22%3A%22IDENTIFICATION%22%2C%22clcsSessionId%22%3A%22b6aa74e0-de26-49bc-b9e8-00e68ce33b2f%22%2C%22sessionContext%22%3A%7B%22session-breadcrumbs%22%3A%7B%22funnel_name%22%3A%22loginWeb%22%7D%7D%7D",
      "time_usec" : 1773886568068643,
      "visit_count" : 1,
      "title" : "Netflix"
    },
    {
      "url" : "https://www.netflix.com/login?serverState=%7B%22realm%22%3A%22growth%22%2C%22name%22%3A%22AUTHENTICATION_LINK_SENT%22%2C%22clcsSessionId%22%3A%22b6aa74e0-de26-49bc-b9e8-00e68ce33b2f%22%2C%22sessionContext%22%3A%7B%22session-breadcrumbs%22%3A%7B%22funnel_name%22%3A%22loginWeb%22%7D%2C%22emailRegisterLinkSent.manageResendToast%22%3A%7B%22showToast%22%3Afalse%7D%7D%7D",
      "time_usec" : 1773886587678790,
      "visit_count" : 1,
      "title" : "Netflix"
    },
    {
      "url" : "https://www.netflix.com/epr?code=0bWXxwd5#no_ul",
      "time_usec" : 1773886601953206,
      "visit_count" : 1,
      "title" : "Netflix"
    },
    {
      "url" : "https://www.netflix.com/epr?code=0bWXxwd5&serverState=%7B%22realm%22%3A%22growth%22%2C%22name%22%3A%22PASSWORDLESS_REGISTRATION%22%2C%22clcsSessionId%22%3A%2275760182-7424-4b57-addc-02f4a5aef0c0%22%2C%22sessionContext%22%3A%7B%22session-breadcrumbs%22%3A%7B%22funnel_name%22%3A%22passwordlessRegistrationPostLink%22%7D%2C%22verifyPasswordlessRegistrationEmail.code%22%3A%7B%22code%22%3A%220bWXxwd5%22%7D%2C%22verifyPasswordlessRegistrationEmail.growthAction%22%3A%7B%22growthAction%22%3A%22VERIFY_WEB_LINK%22%7D%7D%7D#no_ul",
      "time_usec" : 1773886602901432,
      "visit_count" : 1,
      "title" : "Netflix"
    },
    {
      "url" : "https://www.netflix.com/?accountCreated=success",
      "time_usec" : 1773886603764069,
      "visit_count" : 1,
      "title" : "Netflix - Watch TV Shows Online, Watch Movies Online"
    },
    {
      "url" : "https://www.netflix.com/signup?serverState=%7B%22realm%22%3A%22growth%22%2C%22name%22%3A%22PLAN_SELECTION_CONTEXT%22%2C%22clcsSessionId%22%3A%22540607dd-7bcd-44b4-ae8d-a59164d7b216%22%2C%22sessionContext%22%3A%7B%22session-breadcrumbs%22%3A%7B%22funnel_name%22%3A%22signupSimplicity%22%7D%7D%7D",
      "time_usec" : 1773886629345005,
      "visit_count" : 1,
      "title" : "Netflix - Watch TV Shows Online, Watch Movies Online"
    },
    {
      "url" : "https://www.netflix.com/signup?serverState=%7B%22realm%22%3A%22growth%22%2C%22name%22%3A%22PLAN_SELECTION%22%2C%22clcsSessionId%22%3A%22540607dd-7bcd-44b4-ae8d-a59164d7b216%22%2C%22sessionContext%22%3A%7B%22session-breadcrumbs%22%3A%7B%22funnel_name%22%3A%22signupSimplicity%22%7D%7D%7D",
      "time_usec" : 1773886631413581,
      "visit_count" : 1,
      "title" : "Netflix - Watch TV Shows Online, Watch Movies Online"
    },
    {
      "url" : "https://www.netflix.com/signup?serverState=%7B%22realm%22%3A%22growth%22%2C%22name%22%3A%22PAYMENT_PICKER%22%2C%22clcsSessionId%22%3A%22540607dd-7bcd-44b4-ae8d-a59164d7b216%22%2C%22sessionContext%22%3A%7B%22session-breadcrumbs%22%3A%7B%22funnel_name%22%3A%22signupSimplicity%22%7D%7D%7D",
      "time_usec" : 1773886639578546,
      "visit_count" : 1,
      "title" : "Netflix - Watch TV Shows Online, Watch Movies Online"
    },
    {
      "url" : "https://www.netflix.com/signup?serverState=%7B%22realm%22%3A%22growth%22%2C%22name%22%3A%22ENTER_GIFT_CODE%22%2C%22clcsSessionId%22%3A%22540607dd-7bcd-44b4-ae8d-a59164d7b216%22%2C%22sessionContext%22%3A%7B%22session-breadcrumbs%22%3A%7B%22funnel_name%22%3A%22signupSimplicity%22%7D%7D%7D",
      "time_usec" : 1773886645123606,
      "visit_count" : 1,
      "title" : "Netflix - Watch TV Shows Online, Watch Movies Online"
    },
    {
      "url" : "https://my.roku.com/signup?next=https%3A%2F%2Ftherokuchannel.roku.com%2F&source=watch&immediateNext=true",
      "time_usec" : 1773887218128321,
      "visit_count" : 2,
      "title" : "Roku | Create a Roku account"
    },
    {
      "url" : "https://therokuchannel.roku.com/details/c363a6116b835b39b41e3d53e88a53c7/moonshine",
      "time_usec" : 1773887363834245,
      "visit_count" : 1,
      "title" : "Watch Moonshine (2021) Online for Free | The Roku Channel | Roku"
    },
    {
      "url" : "https://therokuchannel.roku.com/watch/7e79a6a621845b50a51ec7dc47663493",
      "time_usec" : 1773887366594727,
      "visit_count" : 1,
      "title" : "Watch Moonshine - S1:E1 Standby Out of Newark (2021) Online for Free | The Roku Channel | Roku"
    },
    {
      "url" : "https://therokuchannel.roku.com/watch/9dd4bb176e1b5feb876f3a915c5122f1?ti=0",
      "time_usec" : 1773890285781129,
      "visit_count" : 1,
      "title" : "Watch Moonshine - S1:E2 Escape Goat (2021) Online for Free | The Roku Channel | Roku"
    },
    {
      "url" : "https://www.google.com/search?q=aws+configure+AWS+Access+Key+ID+%5BNone%5D%3A+AKIA...+AWS+Secret+Access+Key+%5BNone%5D%3A+your-secret-key+Default+region+name+%5BNone%5D%3A+us-west-2+Default+output+format+%5BNone%5D%3A+json&ie=UTF-8&oe=UTF-8&hl=en-us&client=safari",
      "time_usec" : 1773897115653913,
      "visit_count" : 2,
      "title" : "aws configure AWS Access Key ID [None]: AKIA... AWS Secret Access Key [None]: your-secret-key Default region name [None]: us-west-2 Default output format [None]: json - Google Search"
    },
    {
      "url" : "https://chatgpt.com/?q=aws%20configure%20AWS%20Access%20Key%20ID%20%5BNone%5D%3A%20AKIA...%20AWS%20Secret%20Access%20Key%20%5BNone%5D%3A%20your-secret-key%20Default%20region%20name%20%5BNone%5D%3A%20us-west-2%20Default%20output%20format%20%5BNone%5D%3A%20json&hints=search&client_reported_search_source=safari_macos_browser_bar",
      "time_usec" : 1773897124335387,
      "visit_count" : 2,
      "title" : "ChatGPT"
    },
    {
      "url" : "https://chatgpt.com/?q=aws+configure+AWS+Access+Key+ID+%5BNone%5D%3A+AKIA...+AWS+Secret+Access+Key+%5BNone%5D%3A+your-secret-key+Default+region+name+%5BNone%5D%3A+us-west-2+Default+output+format+%5BNone%5D%3A+json&client_reported_search_source=safari_macos_browser_bar",
      "time_usec" : 1773897124589765,
      "visit_count" : 1,
      "title" : "ChatGPT"
    },
    {
      "url" : "http://www.va.gov/",
      "time_usec" : 1773942532877499,
      "visit_count" : 1,
      "destination_url" : "https://www.va.gov/",
      "destination_time_usec" : 1773942532877679
    },
    {
      "url" : "https://www.va.gov/",
      "time_usec" : 1773942532877679,
      "visit_count" : 1,
      "title" : "VA.gov Home | Veterans Affairs",
      "source_url" : "http://www.va.gov/",
      "source_time_usec" : 1773942532877499
    },
    {
      "url" : "https://www.google.com/search?q=punnishment+for+povertyy&ie=UTF-8&oe=UTF-8&hl=en-us&client=safari",
      "time_usec" : 1773942614436339,
      "visit_count" : 2,
      "title" : "punnishment for povertyy - Google Search"
    },
    {
      "url" : "https://chatgpt.com/?q=punnishment%20for%20povertyy&hints=search&client_reported_search_source=safari_macos_browser_bar",
      "time_usec" : 1773942615959900,
      "visit_count" : 2,
      "title" : "ChatGPT"
    },
    {
      "url" : "https://chatgpt.com/?q=punnishment+for+povertyy&client_reported_search_source=safari_macos_browser_bar",
      "time_usec" : 1773942616153846,
      "visit_count" : 1,
      "title" : "ChatGPT"
    },
    {
      "url" : "https://chatgpt.com/c/69bc3759-7d7c-8328-b224-2c29ba388ea2#settings/connectors?connector=asdk_app_69a1d78e929881919bba0dbda1f6436d&add-connector-link=true&target=connectors&referrer=connector_nux_modal",
      "time_usec" : 1773943068741507,
      "visit_count" : 1,
      "title" : "Punishment for Poverty"
    },
    {
      "url" : "https://chatgpt.com/c/69bc3759-7d7c-8328-b224-2c29ba388ea2",
      "time_usec" : 1773943074636942,
      "visit_count" : 2,
      "title" : "Punishment for Poverty"
    },
    {
      "url" : "https://slack.com/oauth/v2_user/authorize?response_type=code&client_id=11843774967.9267274492546&redirect_uri=https%3A%2F%2Fchatgpt.com%2Fconnector_platform_oauth_redirect&scope=search%3Aread.public+search%3Aread.private+search%3Aread.mpim+search%3Aread.im+search%3Aread.files+search%3Aread.users+chat%3Awrite+channels%3Ahistory+groups%3Ahistory+mpim%3Ahistory+im%3Ahistory+canvases%3Aread+canvases%3Awrite+users%3Aread+users%3Aread.email&code_challenge=YHASqIUhMjAWDFsmGRls-YBElRw4UxT_Ti0pAWTNtIA&code_challenge_method=S256&resource=https%3A%2F%2Fmcp.slack.com&state=oauth_s_69bc39227de08191ba879f8439eb7beb",
      "time_usec" : 1773943074816758,
      "visit_count" : 1,
      "destination_url" : "https://slack.com/workspace-signin?redir=%2Foauth%3Fclient_id%3D11843774967.9267274492546%26scope%3Dsearch%253Aread.public%2Bsearch%253Aread.private%2Bsearch%253Aread.mpim%2Bsearch%253Aread.im%2Bsearch%253Aread.files%2Bsearch%253Aread.users%2Bchat%253Awrite%2Bchannels%253Ahistory%2Bgroups%253Ahistory%2Bmpim%253Ahistory%2Bim%253Ahistory%2Bcanvases%253Aread%2Bcanvases%253Awrite%2Busers%253Aread%2Busers%253Aread.email%26user_scope%3D%26redirect_uri%3Dhttps%253A%252F%252Fchatgpt.com%252Fconnector_platform_oauth_redirect%26state%3Doauth_s_69bc39227de08191ba879f8439eb7beb%26granular_bot_scope%3D1%26single_channel%3D0%26install_redirect%3D%26tracked%3D1%26user_default%3D1%26code_challenge%3DYHASqIUhMjAWDFsmGRls-YBElRw4UxT_Ti0pAWTNtIA%26code_challenge_method%3DS256%26response_type%3Dcode%26team%3D",
      "destination_time_usec" : 1773943075125667
    },
    {
      "url" : "https://slack.com/workspace-signin?redir=%2Foauth%3Fclient_id%3D11843774967.9267274492546%26scope%3Dsearch%253Aread.public%2Bsearch%253Aread.private%2Bsearch%253Aread.mpim%2Bsearch%253Aread.im%2Bsearch%253Aread.files%2Bsearch%253Aread.users%2Bchat%253Awrite%2Bchannels%253Ahistory%2Bgroups%253Ahistory%2Bmpim%253Ahistory%2Bim%253Ahistory%2Bcanvases%253Aread%2Bcanvases%253Awrite%2Busers%253Aread%2Busers%253Aread.email%26user_scope%3D%26redirect_uri%3Dhttps%253A%252F%252Fchatgpt.com%252Fconnector_platform_oauth_redirect%26state%3Doauth_s_69bc39227de08191ba879f8439eb7beb%26granular_bot_scope%3D1%26single_channel%3D0%26install_redirect%3D%26tracked%3D1%26user_default%3D1%26code_challenge%3DYHASqIUhMjAWDFsmGRls-YBElRw4UxT_Ti0pAWTNtIA%26code_challenge_method%3DS256%26response_type%3Dcode%26team%3D",
      "time_usec" : 1773943075125667,
      "visit_count" : 1,
      "title" : "Find your workspace | Slack",
      "source_url" : "https://slack.com/oauth/v2_user/authorize?response_type=code&client_id=11843774967.9267274492546&redirect_uri=https%3A%2F%2Fchatgpt.com%2Fconnector_platform_oauth_redirect&scope=search%3Aread.public+search%3Aread.private+search%3Aread.mpim+search%3Aread.im+search%3Aread.files+search%3Aread.users+chat%3Awrite+channels%3Ahistory+groups%3Ahistory+mpim%3Ahistory+im%3Ahistory+canvases%3Aread+canvases%3Awrite+users%3Aread+users%3Aread.email&code_challenge=YHASqIUhMjAWDFsmGRls-YBElRw4UxT_Ti0pAWTNtIA&code_challenge_method=S256&resource=https%3A%2F%2Fmcp.slack.com&state=oauth_s_69bc39227de08191ba879f8439eb7beb",
      "source_time_usec" : 1773943074816758
    },
    {
      "url" : "https://mvpuknowme.slack.com/?redir=%2Foauth%3Fclient_id%3D11843774967.9267274492546%26scope%3Dsearch%253Aread.public%2Bsearch%253Aread.private%2Bsearch%253Aread.mpim%2Bsearch%253Aread.im%2Bsearch%253Aread.files%2Bsearch%253Aread.users%2Bchat%253Awrite%2Bchannels%253Ahistory%2Bgroups%253Ahistory%2Bmpim%253Ahistory%2Bim%253Ahistory%2Bcanvases%253Aread%2Bcanvases%253Awrite%2Busers%253Aread%2Busers%253Aread.email%26user_scope%3D%26redirect_uri%3Dhttps%253A%252F%252Fchatgpt.com%252Fconnector_platform_oauth_redirect%26state%3Doauth_s_69bc39227de08191ba879f8439eb7beb%26granular_bot_scope%3D1%26single_channel%3D0%26install_redirect%3D%26tracked%3D1%26user_default%3D1%26code_challenge%3DYHASqIUhMjAWDFsmGRls-YBElRw4UxT_Ti0pAWTNtIA%26code_challenge_method%3DS256%26response_type%3Dcode%26team%3D",
      "time_usec" : 1773943088595262,
      "visit_count" : 2,
      "title" : "Enter your authentication code | Slack"
    },
    {
      "url" : "https://mvpuknowme.slack.com/oauth?client_id=11843774967.9267274492546&scope=search%3Aread.public+search%3Aread.private+search%3Aread.mpim+search%3Aread.im+search%3Aread.files+search%3Aread.users+chat%3Awrite+channels%3Ahistory+groups%3Ahistory+mpim%3Ahistory+im%3Ahistory+canvases%3Aread+canvases%3Awrite+users%3Aread+users%3Aread.email&user_scope=&redirect_uri=https%3A%2F%2Fchatgpt.com%2Fconnector_platform_oauth_redirect&state=oauth_s_69bc39227de08191ba879f8439eb7beb&granular_bot_scope=1&single_channel=0&install_redirect=&tracked=1&user_default=1&code_challenge=YHASqIUhMjAWDFsmGRls-YBElRw4UxT_Ti0pAWTNtIA&code_challenge_method=S256&response_type=code&team=",
      "time_usec" : 1773943119617025,
      "visit_count" : 1,
      "title" : "Allow the \"ChatGPT\" app to access Slack | Mvpuknowme Slack"
    },
    {
      "url" : "https://chatgpt.com/connector_platform_oauth_redirect?code=10451212939301.10731339246387.410406980317c54537cf81c250ea98ce1e5d855d5c38ff2b31ec7538115bc963&state=oauth_s_69bc39227de08191ba879f8439eb7beb",
      "time_usec" : 1773943126869674,
      "visit_count" : 2,
      "title" : "ChatGPT"
    },
    {
      "url" : "https://chatgpt.com/?_tm=c_msg&_m=Slack+is+now+connected#settings/Connectors?connector=asdk_app_69a1d78e929881919bba0dbda1f6436d",
      "time_usec" : 1773943128596840,
      "visit_count" : 1,
      "title" : "ChatGPT"
    },
    {
      "url" : "https://chatgpt.com/#settings/Connectors?connector=asdk_app_69a1d78e929881919bba0dbda1f6436d",
      "time_usec" : 1773943128800654,
      "visit_count" : 1,
      "title" : "ChatGPT"
    },
    {
      "url" : "https://github.com/copilot/c/fddaf889-dcec-4a2b-a8c0-686e88099e10",
      "time_usec" : 1773951206471480,
      "visit_count" : 3,
      "title" : "Verify two-factor authentication"
    },
    {
      "url" : "http://support.github.com/discussions/feature-requests/41-download-single-file",
      "time_usec" : 1773955951353888,
      "visit_count" : 1,
      "destination_url" : "https://github.com/login/oauth/authorize?client_id=d8c828399d2253fd7276&redirect_uri=https%3A%2F%2Fsupport.github.com%2Fsession%2Fcallback&scope%5B%5D=read%3Aorg&scope%5B%5D=read%3Auser&scope%5B%5D=user%3Aemail&state=2c1f8f72913ff17ae31f4b1d5b76435c",
      "destination_time_usec" : 1773955951354122
    },
    {
      "url" : "https://github.com/login/oauth/authorize?client_id=d8c828399d2253fd7276&redirect_uri=https%3A%2F%2Fsupport.github.com%2Fsession%2Fcallback&scope%5B%5D=read%3Aorg&scope%5B%5D=read%3Auser&scope%5B%5D=user%3Aemail&state=2c1f8f72913ff17ae31f4b1d5b76435c",
      "time_usec" : 1773955951688495,
      "visit_count" : 3,
      "title" : "Verify two-factor authentication"
    },
    {
      "url" : "https://www.google.com/search?q=aws&ie=UTF-8&oe=UTF-8&hl=en-us&client=safari",
      "time_usec" : 1773956053823945,
      "visit_count" : 2,
      "title" : "aws - Google Search"
    },
    {
      "url" : "https://chatgpt.com/?q=aws&hints=search&client_reported_search_source=safari_macos_browser_bar",
      "time_usec" : 1773956054729989,
      "visit_count" : 2,
      "title" : "ChatGPT"
    },
    {
      "url" : "https://chatgpt.com/?q=aws&client_reported_search_source=safari_macos_browser_bar",
      "time_usec" : 1773956054959410,
      "visit_count" : 1,
      "title" : "ChatGPT"
    },
    {
      "url" : "https://docs.aws.amazon.com/cli/v1/userguide/cli-authentication-user.html?utm_source=chatgpt.com",
      "time_usec" : 1773957514401171,
      "visit_count" : 1,
      "title" : "Authenticating using IAM user credentials for the AWS CLI - AWS Command Line Interface"
    },
    {
      "url" : "https://docs.aws.amazon.com/",
      "time_usec" : 1773957534892392,
      "visit_count" : 1
    },
    {
      "url" : "https://signin.aws.amazon.com/oauth?client_id=arn%3Aaws%3Aiam%3A%3A015428540659%3Auser%2Fdocs-unauth&response_type=code&redirect_uri=https://docs.aws.amazon.com/ec2/?icmpid=docs_homepage_featuredsvcs",
      "time_usec" : 1773957554861137,
      "visit_count" : 1,
      "destination_url" : "https://signin.aws.amazon.com/signin?redirect_uri=https%3A%2F%2Fdocs.aws.amazon.com%2Fec2%2F%3Ficmpid%3Ddocs_homepage_featuredsvcs&client_id=arn%3Aaws%3Aiam%3A%3A015428540659%3Auser%2Fdocs-unauth&forceMobileApp=0",
      "destination_time_usec" : 1773957554861286
    },
    {
      "url" : "https://signin.aws.amazon.com/signin?redirect_uri=https%3A%2F%2Fdocs.aws.amazon.com%2Fec2%2F%3Ficmpid%3Ddocs_homepage_featuredsvcs&client_id=arn%3Aaws%3Aiam%3A%3A015428540659%3Auser%2Fdocs-unauth&forceMobileApp=0",
      "time_usec" : 1773957555499938,
      "visit_count" : 3,
      "title" : "Amazon Web Services Sign-In"
    },
    {
      "url" : "https://docs.aws.amazon.com/ec2/?icmpid=docs_homepage_featuredsvcs&code=eyJ6aXAiOiJERUYiLCJlbmMiOiJBMjU2R0NNIiwiYWxnIjoiZGlyIn0..HOGZD9Cb1oTaPewQ.LErHJkrHy33znNFuE1zk7UvvOKRyOhtObIP6O0Vi2RNW75_3Hcn6P3HhXO2Jb6hEP6SWYXL3UelbDMMMRdy564_abOKk_uJleSkYrva30EHTN_NQWSGY2mTYaXHJRyb7GOkskZoQEOc6rH85iCtLwcEdGDb-hHVEHbdl4_Qs7KdcjxasVG81Nc-QWCclnbodEJd4avXe7IXLgG9xSKbzDK-JEPlaC9AJ4Z_lOa-VTmGHFDMHbYbjzveOedJVEhgSfeKl3qkp1PnGH7g5TfYeZF1BwKCsOMI5n4iCqCMqpHCKHyu8PyKAu53_ZbSY11ZVXPxcB0cKCIl4rEyWSYCW3ywkOmTcMLDU85uR7CoKWFwWIMpiCASoiSwFtAIl0djnrw2d_iiE_iGRa5OkkUUoMJQRN-KB4y7dN1puPpJ-TiM19clEiSdMR_JhnDzgV9AHKvwkZ6aPeDjecill-N-SyHMH4Po1Uw7aZIN3z4o06_l-4KblOYijRFKYlblK5DQHjF_WIIUpYR4ogIuZXK-yj_DLrbKTCue1SCmyA7cfJa5F_-Qag1BKITgV7pO7Ph0JjiH30zVKK3rq0yYlh73HPfD5DRhxzEBnRxk7osisYErv1SWFI_QMjHFOLLVXn494EsgNZO3X9-gIB67nfcRWjtNiMnz865aN53lbetBoWAlNHwI4o5rh-lpPX9dNIoNchykf0uzvZcXpt_ZhnMA0_1Q1kQvht3i4xsVSjJPAw85OBhf9q9h3Hq1ob3Lo6tKElrf1WL2QCd3FHHMypWKwVGmsLZI2MyHeg-assgScJ1pa7ABU75GyeEcVOBYtZo4ZhX54o2S8v0OWfHUT6Rl4Vkp9Dhzp-zTSueMuJ5Sb-RGkI7lc7e8t-TxtZHjvvSUr1J4RmcE0LRq6zDJ4cuMy6UlopLjcPm2zKPPlVpnba33N3v-hKVXSNaYWKQ_FXqhBtWZkKKlqLjRnK6hgbfLkrWO75gGvEW5v_lm6p0lnq3ZVOw_N6SIel8iS4I32eFnYH12NRQ90BeAnZj7gFjkBUYhBAJrwEcOmP-699B-odm1pUpdTVC-TDaheb6CK2Z2gdAbAxc6hM5rbLPbGWBaO8nzMXHa53v2dR1Rc4unpA6RiJ6uYe5mpDZPxFpZdg-3ir0s4DNWM0dAFsxuAPhIUCZ8u0PXR4SQBMk_g2tw-BpYwfjLwKUs1FUmoaGPQJDLw-wllsnxcgSAmvDxLC7XC581eGDi23asQEqsIvPtBnCUNB8a9Nx4GREF6Br3IIKgqWTEUnfIktB7xGDd-ff02_iwfLtbUKX1_BL4ZUjjJIlIX3xmNk6rlEBR3HNRl_s_q0fbP2pli3E6q-BMN_Ns92vCPfj-3SXRECBpc9hUJYptYIeP56T8JCL0r3dayrJ4RVWhB39DCxxgdJaoYrVFDCUrOZPCqQTjAjd7wNw_OG2ZVHG5CuoD7_jr22UI9Ujrsn6tqZVwjlN0spDvO3Nl-q5zwulVHKIULT2Jk2dhjL6mV2t4fGduDZar17dojN3ieCLUvuadmvxY1pgiBkYjIYt_wGWFTTzJX4kmcUEw9ZfWYj_fl7FL9gB_DB7SkzyR6PaY4NcZswJAgUCyCARhxLy4iU3gT7Qw2LIkMNw.385rTB603rRzLcYKXJmk7A",
      "time_usec" : 1773957571619537,
      "visit_count" : 1,
      "title" : "Amazon Elastic Compute Cloud Documentation"
    },
    {
      "url" : "https://docs.aws.amazon.com/ec2/?icmpid=docs_homepage_featuredsvcs",
      "time_usec" : 1773957571788629,
      "visit_count" : 2,
      "title" : "Amazon Elastic Compute Cloud Documentation"
    },
    {
      "url" : "https://docs.aws.amazon.com/ec2/?icmpid=docs_homepage_featuredsvcs#develop-for-amazon-ec2",
      "time_usec" : 1773957611159748,
      "visit_count" : 1,
      "title" : "Amazon Elastic Compute Cloud Documentation"
    },
    {
      "url" : "https://github.com/new",
      "time_usec" : 1773957797675997,
      "visit_count" : 3,
      "title" : "Verify two-factor authentication"
    },
    {
      "url" : "https://aws.amazon.com/architecture/compute-hpc/?docec2_rl1/index.html",
      "time_usec" : 1773958307424495,
      "visit_count" : 1,
      "title" : "Compute & HPC | AWS Architecture Center"
    },
    {
      "url" : "https://console.aws.amazon.com/?nc2=h_uta_mc",
      "time_usec" : 1773958314921671,
      "visit_count" : 1,
      "destination_url" : "https://console.aws.amazon.com/console/home?nc2=h_uta_mc",
      "destination_time_usec" : 1773958314921812
    },
    {
      "url" : "https://console.aws.amazon.com/console/home?nc2=h_uta_mc&hashArgs=%23&oauthStart=1773958314873",
      "time_usec" : 1773958316065491,
      "visit_count" : 1,
      "destination_url" : "https://console.aws.amazon.com/console/home?nc2=h_uta_mc#",
      "destination_time_usec" : 1773958316065840
    },
    {
      "url" : "https://console.aws.amazon.com/console/home?nc2=h_uta_mc#",
      "time_usec" : 1773958316065840,
      "visit_count" : 1,
      "source_url" : "https://console.aws.amazon.com/console/home?nc2=h_uta_mc&hashArgs=%23&oauthStart=1773958314873",
      "source_time_usec" : 1773958316065491,
      "destination_url" : "https://console.aws.amazon.com/console/home?nc2=h_uta_mc&region=us-east-1",
      "destination_time_usec" : 1773958316573434
    },
    {
      "url" : "https://console.aws.amazon.com/console/home?nc2=h_uta_mc&region=us-east-1",
      "time_usec" : 1773958316573434,
      "visit_count" : 1,
      "source_url" : "https://console.aws.amazon.com/console/home?nc2=h_uta_mc#",
      "source_time_usec" : 1773958316065840,
      "destination_url" : "https://us-east-1.console.aws.amazon.com/console/home?nc2=h_uta_mc&region=us-east-1",
      "destination_time_usec" : 1773958316573638
    },
    {
      "url" : "https://us-east-1.console.aws.amazon.com/console/home?nc2=h_uta_mc&region=us-east-1#",
      "time_usec" : 1773958319037312,
      "visit_count" : 2,
      "title" : "Console Home | Console Home | us-east-1"
    },
    {
      "url" : "https://builder.aws.com/",
      "time_usec" : 1773958375133222,
      "visit_count" : 2,
      "title" : "AWS Builder Center"
    },
    {
      "url" : "https://oidc.us-east-1.amazonaws.com/authorize?client_id=arn:aws:sso::432677196278:application/ssoins-7223047e142125f4/apl-b7f2f9ec03cb4aab&redirect_uri=https://builder.aws.com/&response_type=code&state=QUFBQURtdGxlUzB4TlRZNE9UVTFNekEzN2hVRjZPRThIZkV1a3lRWVRWUVUyT2ZhVDBUdUp0V2Q3OFRUM21fNkJnVzdtTXF3X3VrQ2RGSVlYWXB0ZHJJOXRKVnIxV0VmUHdfM2tkaHhSNS1neC1hUHQwQmU0dnZiTlA5RnJTZnBUWUxyWmlCWTdXYWl6VXhZVm1jSTE1Sy1wd2dmR1l1enpFZ1dDNHpQV25ZS2FRRVdoQkd2cUxEM2dfcFBhTmZwam8yY1owMVdPSXlnR1lIenZXcm52M1htWG1qSkx3dFRfTXViSDRpcjBONzhtVEQ4ZW5xVk96eHVQQ2JpV2xLRlEwdmROQQ",
      "time_usec" : 1773958380554144,
      "visit_count" : 1,
      "destination_url" : "https://view.awsapps.com/start/?callback_url=https%3A%2F%2Foidc.us-east-1.amazonaws.com%2Fauthentication_result&orchestrator_id=AAAADmtleS0xNTY0MDI4MDc4oH16L1569nwthsgJiDBZI57nH95pbc42GBmC7H4H12IYC6X_OV4uMoa-Y5zv1I-n1YU3Wh_dCNWyw9daTRb_v8m52FW7jNBdPONU_RQWaoTGzejRPr7mg0orUlLwoPurEl1cqlkJIPPr5HvFfNFDYSXzv8DGA_EkHlkf2QMwKDy_4SEP9o7tJcl-13yWRRzv6eAIW7h_QibFRIdOjo2_9HEEdxpZRV4b0u3Fp0POvYXWqsGbGKz925Y1Z7G2P0sSZQvbcQTtLMDvhcVVaSdNPBeTjCa36fK6mvCBIvAKscSAB1jvqtQcKSMNeq7GuOULBF3K-iqJ-bmgoXYMMMgl8noee2jDCJgiaNu_aqBeiuORQ9EAKiPfzroser2fipke_okWkdCuZORZjlckVRFyFkp3dP9-I5PAKNi44DlCYGCkOaJxYPKtbEFfaReOHf57SNGDiqh872CoxwuJLXBZpPzscQ9tS7yICkDSwZbEAJpt0U7AWNqFxQbjAWr3AuQ2tm86vuVB0DeKa9QJfpv9Yc71QNXGj8bZ74N9v-iHioAX3_ImPoXbI_NkGVx0Hb-5GU1AZHYqudGLk4_67uKrsygHvtzG7GyyVUvl62uHZRWj9Efb0b4P4YbWfdTHG7ZAH16-qYel9t8e8znDoensz1FdifGOUhyz8wKEUKmFn79Jdc7t8ExzGi87KJXok1kkrDI-51EiEVroAq6sssIxs0vX0acMjowwnKt8yqcVL9zh2m0trUMF4yupIgRTLOdKhWXp-PSE_XTi9bQlxL_68GuF-lrJgr_f0e_o1m0YhVBmb9GClX7FlpwsT81_IBXfpDXRHhfMzgxFmmC-AwVRwpL2GSXy0xV0KkRtQn-JpX1c1D4WCvA1yGMo2XyUULe78tYmWBONvSiUbDmwd80wzMMvbkeqz7qpK2u5bdEdlmRSUraxht1-8LS5IjptlnRwI7OuBaDse_zvs7xNrX80qFtb53o6obH0GGXpgO63fa-MTP8GtwoeoTGkngmgwAY6-_PMJ62Kexddf7KoRQJ_x3xqTMdQ94kghwGFU_qC2VM8JYRQo6qb864MgSlEH7JCCFtLYUcxp3WpdXUofV43euhfTU2N9HMddY7SmvCw1x9WGb3pLhhkFWAhOQp9biiDlbc",
      "destination_time_usec" : 1773958380554436
    },
    {
      "url" : "https://view.awsapps.com/start/?callback_url=https%3A%2F%2Foidc.us-east-1.amazonaws.com%2Fauthentication_result&orchestrator_id=AAAADmtleS0xNTY0MDI4MDc4oH16L1569nwthsgJiDBZI57nH95pbc42GBmC7H4H12IYC6X_OV4uMoa-Y5zv1I-n1YU3Wh_dCNWyw9daTRb_v8m52FW7jNBdPONU_RQWaoTGzejRPr7mg0orUlLwoPurEl1cqlkJIPPr5HvFfNFDYSXzv8DGA_EkHlkf2QMwKDy_4SEP9o7tJcl-13yWRRzv6eAIW7h_QibFRIdOjo2_9HEEdxpZRV4b0u3Fp0POvYXWqsGbGKz925Y1Z7G2P0sSZQvbcQTtLMDvhcVVaSdNPBeTjCa36fK6mvCBIvAKscSAB1jvqtQcKSMNeq7GuOULBF3K-iqJ-bmgoXYMMMgl8noee2jDCJgiaNu_aqBeiuORQ9EAKiPfzroser2fipke_okWkdCuZORZjlckVRFyFkp3dP9-I5PAKNi44DlCYGCkOaJxYPKtbEFfaReOHf57SNGDiqh872CoxwuJLXBZpPzscQ9tS7yICkDSwZbEAJpt0U7AWNqFxQbjAWr3AuQ2tm86vuVB0DeKa9QJfpv9Yc71QNXGj8bZ74N9v-iHioAX3_ImPoXbI_NkGVx0Hb-5GU1AZHYqudGLk4_67uKrsygHvtzG7GyyVUvl62uHZRWj9Efb0b4P4YbWfdTHG7ZAH16-qYel9t8e8znDoensz1FdifGOUhyz8wKEUKmFn79Jdc7t8ExzGi87KJXok1kkrDI-51EiEVroAq6sssIxs0vX0acMjowwnKt8yqcVL9zh2m0trUMF4yupIgRTLOdKhWXp-PSE_XTi9bQlxL_68GuF-lrJgr_f0e_o1m0YhVBmb9GClX7FlpwsT81_IBXfpDXRHhfMzgxFmmC-AwVRwpL2GSXy0xV0KkRtQn-JpX1c1D4WCvA1yGMo2XyUULe78tYmWBONvSiUbDmwd80wzMMvbkeqz7qpK2u5bdEdlmRSUraxht1-8LS5IjptlnRwI7OuBaDse_zvs7xNrX80qFtb53o6obH0GGXpgO63fa-MTP8GtwoeoTGkngmgwAY6-_PMJ62Kexddf7KoRQJ_x3xqTMdQ94kghwGFU_qC2VM8JYRQo6qb864MgSlEH7JCCFtLYUcxp3WpdXUofV43euhfTU2N9HMddY7SmvCw1x9WGb3pLhhkFWAhOQp9biiDlbc",
      "time_usec" : 1773958380554436,
      "visit_count" : 1,
      "title" : "Amazon Web Services",
      "source_url" : "https://oidc.us-east-1.amazonaws.com/authorize?client_id=arn:aws:sso::432677196278:application/ssoins-7223047e142125f4/apl-b7f2f9ec03cb4aab&redirect_uri=https://builder.aws.com/&response_type=code&state=QUFBQURtdGxlUzB4TlRZNE9UVTFNekEzN2hVRjZPRThIZkV1a3lRWVRWUVUyT2ZhVDBUdUp0V2Q3OFRUM21fNkJnVzdtTXF3X3VrQ2RGSVlYWXB0ZHJJOXRKVnIxV0VmUHdfM2tkaHhSNS1neC1hUHQwQmU0dnZiTlA5RnJTZnBUWUxyWmlCWTdXYWl6VXhZVm1jSTE1Sy1wd2dmR1l1enpFZ1dDNHpQV25ZS2FRRVdoQkd2cUxEM2dfcFBhTmZwam8yY1owMVdPSXlnR1lIenZXcm52M1htWG1qSkx3dFRfTXViSDRpcjBONzhtVEQ4ZW5xVk96eHVQQ2JpV2xLRlEwdmROQQ",
      "source_time_usec" : 1773958380554144
    },
    {
      "url" : "https://copilot.microsoft.com/tasks/preview",
      "time_usec" : 1773960444156344,
      "visit_count" : 1,
      "title" : "Microsoft Copilot: Your AI companion"
    },
    {
      "url" : "https://copilot.microsoft.com/labs",
      "time_usec" : 1773960447138453,
      "visit_count" : 1,
      "title" : "Microsoft Copilot: Your AI companion"
    },
    {
      "url" : "https://copilot.microsoft.com/login",
      "time_usec" : 1773960524421805,
      "visit_count" : 1,
      "title" : "Microsoft Copilot: Your AI companion"
    },
    {
      "url" : "https://copilot.microsoft.com/?code=lTLWHFSzZEm5M7_NrLBv7flnuoD42sTv8I6-vEzLBSwz2&state=NTlMTEZ2ZnN%2BYX44QXNFRG5DZVhvQUllcjQ2N2ZHemxKQ0ltZE1PeGhGNQ%3D%3D",
      "time_usec" : 1773960565361401,
      "visit_count" : 1,
      "title" : "Microsoft Copilot: Your AI companion"
    },
    {
      "url" : "https://copilot.microsoft.com/",
      "time_usec" : 1773960566040057,
      "visit_count" : 3,
      "title" : "Microsoft Copilot: Your AI companion"
    },
    {
      "url" : "https://copilot.microsoft.com/chats/nJttFu26PWzEujEQXSudi",
      "time_usec" : 1773960592745576,
      "visit_count" : 2,
      "title" : "Microsoft Copilot: Your AI companion"
    },
    {
      "url" : "https://copilot.microsoft.com/pages/zmyvQEKxwubSieCooAk5j",
      "time_usec" : 1773960601385672,
      "visit_count" : 2,
      "title" : "Microsoft Copilot: Your AI companion"
    },
    {
      "url" : "https://copilot.microsoft.com/chats/wXPL88VqiiScCCbncKeqE",
      "time_usec" : 1773960629801975,
      "visit_count" : 5,
      "title" : "Microsoft Copilot: Your AI companion"
    },
    {
      "url" : "https://github.com/apps/vercel",
      "time_usec" : 1773961136904683,
      "visit_count" : 6,
      "title" : "Verify two-factor authentication"
    },
    {
      "url" : "https://verify.id.me/en/da72343e51084f50be134cb7686124cf/identity/identity_recovery_license/bd001595267244209e11af623b63f13a?selfie_option=from_phone&step=selfie_option",
      "time_usec" : 1773961774444557,
      "visit_count" : 1,
      "title" : "Take a video selfie with my device - ID.me",
      "latest_visit_was_http_get" : false
    },
    {
      "url" : "https://verify.id.me/en/da72343e51084f50be134cb7686124cf/identity/identity_recovery_license/bd001595267244209e11af623b63f13a",
      "time_usec" : 1773961788068204,
      "visit_count" : 4,
      "title" : "We sent a text message to +15412410229 - ID.me",
      "latest_visit_was_http_get" : false
    },
    {
      "url" : "https://verify.id.me/en/phones/bd001595267244209e11af623b63f13a/authorize?vfp=gNqZMLAl",
      "time_usec" : 1773961800172521,
      "visit_count" : 1,
      "title" : "Email address ownership confirmation - ID.me"
    },
    {
      "url" : "https://device.proveapis.com/fortified/2015/06/01/continueAuth?vfp=gNqZMLAl&e=idme01",
      "time_usec" : 1773961803923157,
      "visit_count" : 1,
      "destination_url" : "https://verify.id.me/en/live-selfie/bd001595267244209e11af623b63f13a/edit",
      "destination_time_usec" : 1773961803923329
    },
    {
      "url" : "https://verify.id.me/en/live-selfie/bd001595267244209e11af623b63f13a/edit",
      "time_usec" : 1773961803923329,
      "visit_count" : 1,
      "title" : "Liveness Verification - ID.me",
      "source_url" : "https://device.proveapis.com/fortified/2015/06/01/continueAuth?vfp=gNqZMLAl&e=idme01",
      "source_time_usec" : 1773961803923157
    },
    {
      "url" : "https://verify.id.me/en/da72343e51084f50be134cb7686124cf/identity/identity_recovery_license/bd001595267244209e11af623b63f13a/edit",
      "time_usec" : 1773961806944222,
      "visit_count" : 2,
      "title" : "Please wait...",
      "destination_url" : "https://verify.id.me/en/checkpoint",
      "destination_time_usec" : 1773961868226114
    },
    {
      "url" : "https://verify.id.me/en/live-selfie/bd001595267244209e11af623b63f13a/success",
      "time_usec" : 1773961851025327,
      "visit_count" : 1,
      "title" : "Return to the other open browser tab to continue - ID.me"
    },
    {
      "url" : "https://verify.id.me/en/checkpoint",
      "time_usec" : 1773961868226114,
      "visit_count" : 1,
      "source_url" : "https://verify.id.me/en/da72343e51084f50be134cb7686124cf/identity/identity_recovery_license/bd001595267244209e11af623b63f13a/edit",
      "source_time_usec" : 1773961806944222,
      "destination_url" : "https://verify.id.me/en/d2b4a23f41544eb58fc10262ed06d286/identity/livenesses/d1a56a8d7db84a16b82dbbca5c38790f/edit",
      "destination_time_usec" : 1773961868226262
    },
    {
      "url" : "https://verify.id.me/en/d2b4a23f41544eb58fc10262ed06d286/identity/livenesses/d1a56a8d7db84a16b82dbbca5c38790f/edit",
      "time_usec" : 1773961868226262,
      "visit_count" : 1,
      "title" : "Let's take a video selfie - ID.me",
      "source_url" : "https://verify.id.me/en/checkpoint",
      "source_time_usec" : 1773961868226114
    },
    {
      "url" : "https://www.dropbox.com/login?cont=%2Fpreview%2FSuite%2520dossier%2FiOS%2520improves%2FMVP_Ethereum_WalletCard%2F0xB2337F031FF55A9000Ee72F15Ee96800423c1D4F.txt",
      "time_usec" : 1773962109723078,
      "visit_count" : 1,
      "title" : "Login or Sign Up - Dropbox",
      "source_url" : "https://www.dropbox.com/preview/Suite%20dossier/iOS%20improves/MVP_Ethereum_WalletCard/0xB2337F031FF55A9000Ee72F15Ee96800423c1D4F.txt",
      "source_time_usec" : 1773962109723027
    },
    {
      "url" : "https://www.dropbox.com/preview/Suite%20dossier/iOS%20improves/MVP_Ethereum_WalletCard/0xB2337F031FF55A9000Ee72F15Ee96800423c1D4F.txt",
      "time_usec" : 1773962124232456,
      "visit_count" : 2
    },
    {
      "url" : "https://therokuchannel.roku.com/details/0a40b3e4969455a6bf0c0035ec1a9fa3/genesis",
      "time_usec" : 1773967622448011,
      "visit_count" : 1,
      "title" : "Watch Génesis (2021) Online for Free | The Roku Channel | Roku"
    },
    {
      "url" : "https://therokuchannel.roku.com/details/846f5139abac5038144017bae03cfce4/reyes",
      "time_usec" : 1773967651266756,
      "visit_count" : 1,
      "title" : "Watch Reyes (2024) Online for Free | The Roku Channel | Roku"
    },
    {
      "url" : "https://us-east-1.signin.aws/platform/d-9067642ac7/oidc/callback",
      "time_usec" : 1773968523131737,
      "visit_count" : 1,
      "title" : "Amazon Web Services",
      "latest_visit_was_load_failure" : true
    },
    {
      "url" : "https://console.aws.amazon.com/",
      "time_usec" : 1773968538316822,
      "visit_count" : 1,
      "destination_url" : "https://console.aws.amazon.com/console/home",
      "destination_time_usec" : 1773968538316961
    },
    {
      "url" : "https://health.console.aws.amazon.com/health/home?region=us-east-1#",
      "time_usec" : 1773968579990598,
      "visit_count" : 1,
      "title" : "Your account health | AWS Health Dashboard",
      "source_url" : "https://health.console.aws.amazon.com/health/home?region=us-east-1",
      "source_time_usec" : 1773968577260439
    },
    {
      "url" : "https://health.console.aws.amazon.com/health/home?region=us-east-1#/",
      "time_usec" : 1773968583484106,
      "visit_count" : 1,
      "title" : "AWS Health Dashboard | Global"
    },
    {
      "url" : "https://health.console.aws.amazon.com/health/home?region=us-east-1#/account/dashboard/open-issues",
      "time_usec" : 1773968583855592,
      "visit_count" : 1,
      "title" : "Your account health | AWS Health Dashboard | Global"
    },
    {
      "url" : "https://us-east-1.console.aws.amazon.com/pca-connector-ad/home?region=us-east-1",
      "time_usec" : 1773969591675804,
      "visit_count" : 1,
      "destination_url" : "https://us-east-1.console.aws.amazon.com/pca-connector-ad/home?region=us-east-1&hashArgs=%23&oauthStart=1773969591620",
      "destination_time_usec" : 1773969593580442
    },
    {
      "url" : "https://us-east-1.console.aws.amazon.com/pca-connector-ad/home?region=us-east-1&hashArgs=%23&oauthStart=1773969591620",
      "time_usec" : 1773969593580442,
      "visit_count" : 1,
      "source_url" : "https://us-east-1.console.aws.amazon.com/pca-connector-ad/home?region=us-east-1",
      "source_time_usec" : 1773969591675804,
      "destination_url" : "https://portal.aws.amazon.com/billing/signup/incomplete",
      "destination_time_usec" : 1773969593580573
    },
    {
      "url" : "https://support.console.aws.amazon.com/support/home?hashArgs=%23case%2Fcreate&oauthStart=1773969625729",
      "time_usec" : 1773969627141958,
      "visit_count" : 1,
      "source_url" : "https://support.console.aws.amazon.com/support/home#case/create",
      "source_time_usec" : 1773969625762970,
      "destination_url" : "https://support.console.aws.amazon.com/support/home#case/create",
      "destination_time_usec" : 1773969627142329
    },
    {
      "url" : "https://us-east-1.console.aws.amazon.com/devops-guru/home?region=us-east-1",
      "time_usec" : 1773969673935683,
      "visit_count" : 1
    },
    {
      "url" : "https://aws.amazon.com/support/createCase",
      "time_usec" : 1773969688481011,
      "visit_count" : 2,
      "destination_url" : "https://support.console.aws.amazon.com/support/home#case/create",
      "destination_time_usec" : 1773969688481113
    },
    {
      "url" : "https://support.console.aws.amazon.com/support/home#case/create",
      "time_usec" : 1773969688481113,
      "visit_count" : 3,
      "title" : "Create case | Support | Global",
      "source_url" : "https://aws.amazon.com/support/createCase",
      "source_time_usec" : 1773969688481011
    },
    {
      "url" : "https://support.console.aws.amazon.com/support/home#/case/create",
      "time_usec" : 1773969689410337,
      "visit_count" : 2,
      "title" : "Create case | Support | Global"
    },
    {
      "url" : "https://chatgpt.com/c/69862aff-cadc-8326-83c5-afcedd00ed21",
      "time_usec" : 1773969743010481,
      "visit_count" : 2,
      "title" : "Aura-Core PDF Creation"
    },
    {
      "url" : "https://chatgpt.com/backend-api/estuary/content?id=file_000000006924722f9138396a744df66d&ts=492769&p=fs&cid=1&sig=c9499d0d69db55f8c6bcba5b6587cf89195414229fde0035f293950ed010276e&v=0",
      "time_usec" : 1773969830706709,
      "visit_count" : 1
    },
    {
      "url" : "https://us-east-1.console.aws.amazon.com/cloudformation/home?region=us-east-1#/iac-generator",
      "time_usec" : 1773969968587902,
      "visit_count" : 1,
      "destination_url" : "https://us-east-1.console.aws.amazon.com/cloudformation/home?region=us-east-1&hashArgs=%23%2Fiac-generator&oauthStart=1773969968536",
      "destination_time_usec" : 1773969970562788
    },
    {
      "url" : "https://us-east-1.console.aws.amazon.com/cloudformation/home?region=us-east-1&hashArgs=%23%2Fiac-generator&oauthStart=1773969968536",
      "time_usec" : 1773969970562788,
      "visit_count" : 1,
      "source_url" : "https://us-east-1.console.aws.amazon.com/cloudformation/home?region=us-east-1#/iac-generator",
      "source_time_usec" : 1773969968587902,
      "destination_url" : "https://portal.aws.amazon.com/billing/signup/incomplete",
      "destination_time_usec" : 1773969970562957
    },
    {
      "url" : "https://portal.aws.amazon.com/billing/signup?type=resubscribe#/identityverification",
      "time_usec" : 1773969979746495,
      "visit_count" : 3,
      "title" : "AWS Console - Signup"
    },
    {
      "url" : "https://us-east-1.console.aws.amazon.com/compute-optimizer/home",
      "time_usec" : 1773970053065360,
      "visit_count" : 1,
      "destination_url" : "https://us-east-1.console.aws.amazon.com/compute-optimizer/home?hashArgs=%23&oauthStart=1773970052541",
      "destination_time_usec" : 1773970053476156
    },
    {
      "url" : "https://us-east-1.console.aws.amazon.com/compute-optimizer/home?hashArgs=%23&oauthStart=1773970052541",
      "time_usec" : 1773970053476156,
      "visit_count" : 1,
      "source_url" : "https://us-east-1.console.aws.amazon.com/compute-optimizer/home",
      "source_time_usec" : 1773970053065360,
      "destination_url" : "https://us-east-1.console.aws.amazon.com/compute-optimizer/home?ca-oauth-flow-id=6438&oauthStart=1773970052541&region=us-east-1#",
      "destination_time_usec" : 1773970053476315
    },
    {
      "url" : "https://us-east-1.console.aws.amazon.com/compute-optimizer/home?ca-oauth-flow-id=6438&oauthStart=1773970052541&region=us-east-1#",
      "time_usec" : 1773970053476315,
      "visit_count" : 1,
      "source_url" : "https://us-east-1.console.aws.amazon.com/compute-optimizer/home?hashArgs=%23&oauthStart=1773970052541",
      "source_time_usec" : 1773970053476156,
      "destination_url" : "https://us-east-1.console.aws.amazon.com/compute-optimizer/home?ca-oauth-flow-id=6438&oauthStart=1773970052541&region=us-east-1&hashArgs=%23&oauthStart=1773970053433",
      "destination_time_usec" : 1773970054633303
    },
    {
      "url" : "https://us-east-1.console.aws.amazon.com/compute-optimizer/home?ca-oauth-flow-id=6438&oauthStart=1773970052541&region=us-east-1&hashArgs=%23&oauthStart=1773970053433",
      "time_usec" : 1773970054633303,
      "visit_count" : 1,
      "source_url" : "https://us-east-1.console.aws.amazon.com/compute-optimizer/home?ca-oauth-flow-id=6438&oauthStart=1773970052541&region=us-east-1#",
      "source_time_usec" : 1773970053476315,
      "destination_url" : "https://portal.aws.amazon.com/billing/signup/incomplete",
      "destination_time_usec" : 1773970054633437
    },
    {
      "url" : "https://console.aws.amazon.com/events/home?hashArgs=%23rules%2Fcreate&oauthStart=1773970064061",
      "time_usec" : 1773970065342315,
      "visit_count" : 1,
      "source_url" : "https://console.aws.amazon.com/events/home#rules/create",
      "source_time_usec" : 1773970064082621,
      "destination_url" : "https://portal.aws.amazon.com/billing/signup/incomplete",
      "destination_time_usec" : 1773970065342458
    },
    {
      "url" : "https://us-east-1.console.aws.amazon.com/billing/home#/freetier/upgrade",
      "time_usec" : 1773970067136284,
      "visit_count" : 1,
      "source_url" : "https://console.aws.amazon.com/billing/home#/freetier/upgrade",
      "source_time_usec" : 1773970067135969
    },
    {
      "url" : "https://console.aws.amazon.com/billing/home#/freetier/upgrade",
      "time_usec" : 1773970072542317,
      "visit_count" : 2,
      "destination_url" : "https://us-east-1.console.aws.amazon.com/console/signup#/freetier/upgrade",
      "destination_time_usec" : 1773970072542594
    },
    {
      "url" : "https://us-east-1.console.aws.amazon.com/console/signup#/freetier/upgrade",
      "time_usec" : 1773970072542594,
      "visit_count" : 1,
      "source_url" : "https://console.aws.amazon.com/billing/home#/freetier/upgrade",
      "source_time_usec" : 1773970072542317,
      "destination_url" : "https://console.aws.amazon.com/console/signup?region=us-east-1#/freetier/upgrade",
      "destination_time_usec" : 1773970073044926
    },
    {
      "url" : "https://console.aws.amazon.com/console/signup?region=us-east-1#/freetier/upgrade",
      "time_usec" : 1773970073044926,
      "visit_count" : 1,
      "source_url" : "https://us-east-1.console.aws.amazon.com/console/signup#/freetier/upgrade",
      "source_time_usec" : 1773970072542594,
      "destination_url" : "https://portal.aws.amazon.com/billing/signup/incomplete#/freetier/upgrade",
      "destination_time_usec" : 1773970073045021
    },
    {
      "url" : "https://portal.aws.amazon.com/billing/signup/incomplete#/freetier/upgrade",
      "time_usec" : 1773970073045021,
      "visit_count" : 1,
      "title" : "AWS Console - Signup",
      "source_url" : "https://console.aws.amazon.com/console/signup?region=us-east-1#/freetier/upgrade",
      "source_time_usec" : 1773970073044926
    },
    {
      "url" : "https://support.console.aws.amazon.com/support/home#/",
      "time_usec" : 1773970079320075,
      "visit_count" : 3,
      "title" : "Support | Global"
    },
    {
      "url" : "https://support.console.aws.amazon.com/support/home?conversationId=7148b681-c03b-4424-89b5-790a0eb427d8#/",
      "time_usec" : 1773970083621739,
      "visit_count" : 1,
      "title" : "Support | Global"
    },
    {
      "url" : "https://support.console.aws.amazon.com/support/home?conversationId=7148b681-c03b-4424-89b5-790a0eb427d8&interactionId=0ca15775-5f34-4f28-86a4-4bd65cb8e5fc#/",
      "time_usec" : 1773970094205202,
      "visit_count" : 2,
      "title" : "Support | Global"
    },
    {
      "url" : "https://health.console.aws.amazon.com/health/home",
      "time_usec" : 1773970102370422,
      "visit_count" : 2,
      "title" : "Your account health | AWS Health Dashboard"
    },
    {
      "url" : "https://health.console.aws.amazon.com/health/home#/",
      "time_usec" : 1773970102496197,
      "visit_count" : 2,
      "title" : "AWS Health Dashboard | Global"
    },
    {
      "url" : "https://health.console.aws.amazon.com/health/home#/eventbridge",
      "time_usec" : 1773970112669966,
      "visit_count" : 1,
      "title" : "Amazon EventBridge | AWS Health Dashboard | Global"
    },
    {
      "url" : "https://console.aws.amazon.com/events/home#rules/create",
      "time_usec" : 1773970115851832,
      "visit_count" : 2,
      "destination_url" : "https://console.aws.amazon.com/events/home?hashArgs=%23rules%2Fcreate&oauthStart=1773970115781",
      "destination_time_usec" : 1773970117390960
    },
    {
      "url" : "https://console.aws.amazon.com/events/home?hashArgs=%23rules%2Fcreate&oauthStart=1773970115781",
      "time_usec" : 1773970117390960,
      "visit_count" : 1,
      "source_url" : "https://console.aws.amazon.com/events/home#rules/create",
      "source_time_usec" : 1773970115851832,
      "destination_url" : "https://portal.aws.amazon.com/billing/signup/incomplete",
      "destination_time_usec" : 1773970117391223
    },
    {
      "url" : "https://github.com/aws/aws-health-tools/tree/master/automated-actions/AWS_RISK_CREDENTIALS_EXPOSED",
      "time_usec" : 1773970132524037,
      "visit_count" : 3,
      "title" : "Verify two-factor authentication"
    },
    {
      "url" : "https://github.com/settings/two_factor_checkup/delay",
      "time_usec" : 1773970151395042,
      "visit_count" : 1,
      "title" : "Can’t Open Page",
      "latest_visit_was_load_failure" : true
    },
    {
      "url" : "https://health.console.aws.amazon.com/health/home#/account/dashboard/open-issues",
      "time_usec" : 1773970210171690,
      "visit_count" : 3,
      "title" : "Your account health | AWS Health Dashboard | Global"
    },
    {
      "url" : "https://us-east-1.console.aws.amazon.com/cloudshell/home?region=us-east-1&hashArgs=%23&oauthStart=1773970258748",
      "time_usec" : 1773970293490910,
      "visit_count" : 1,
      "destination_url" : "https://portal.aws.amazon.com/billing/signup/incomplete",
      "destination_time_usec" : 1773970293491045
    },
    {
      "url" : "https://us-east-1.console.aws.amazon.com/apprunner/home?region=us-east-1",
      "time_usec" : 1773970448448988,
      "visit_count" : 1,
      "destination_url" : "https://us-east-1.console.aws.amazon.com/apprunner/home?region=us-east-1&hashArgs=%23&oauthStart=1773970448409",
      "destination_time_usec" : 1773970451482578
    },
    {
      "url" : "https://console.aws.amazon.com/console/home",
      "time_usec" : 1773970449457526,
      "visit_count" : 3,
      "destination_url" : "https://us-east-1.console.aws.amazon.com/console/home?region=us-east-1",
      "destination_time_usec" : 1773970450572960
    },
    {
      "url" : "https://us-east-1.console.aws.amazon.com/apprunner/home?region=us-east-1&hashArgs=%23&oauthStart=1773970448409",
      "time_usec" : 1773970451482578,
      "visit_count" : 1,
      "source_url" : "https://us-east-1.console.aws.amazon.com/apprunner/home?region=us-east-1",
      "source_time_usec" : 1773970448448988,
      "destination_url" : "https://portal.aws.amazon.com/billing/signup/incomplete",
      "destination_time_usec" : 1773970451482624
    },
    {
      "url" : "https://health.console.aws.amazon.com/health/home?region=us-east-1",
      "time_usec" : 1773970454232512,
      "visit_count" : 2
    },
    {
      "url" : "https://chatgpt.com/c/69bc6bd7-c108-832c-ac32-206085ceebe9",
      "time_usec" : 1773970498858776,
      "visit_count" : 3,
      "title" : "AWS Overview"
    },
    {
      "url" : "https://portal.azure.com/?ocid=AIDcmmixifvumj_OLA_35046979_440663832_249437603",
      "time_usec" : 1773970520643156,
      "visit_count" : 1,
      "title" : "Microsoft Azure"
    },
    {
      "url" : "https://login.microsoftonline.com/organizations/oauth2/v2.0/authorize?client_id=c44b4083-3bb0-49c1-b47d-974e53cbdf3c&scope=https%3A%2F%2Fmanagement.core.windows.net%2F%2F.default%20openid%20profile%20offline_access&redirect_uri=https%3A%2F%2Fportal.azure.com%2Fauth%2Flogin%2F&client-request-id=019d08e1-fadf-7223-bd0c-67fa5a401a6c&response_mode=fragment&client_info=1&nonce=019d08e1-fadf-7a51-bae4-ccbe7ebd4ac7&state=eyJpZCI6IjAxOWQwOGUxLWZhZGYtNzgyNy04N2QyLTQxYzkxNmEyYmU1YyIsIm1ldGEiOnsiaW50ZXJhY3Rpb25UeXBlIjoicmVkaXJlY3QifX0%3D&x-client-SKU=msal.js.browser&x-client-VER=4.21.0&response_type=code&code_challenge=tLlr8O3s5sAuap3G9hbs6pcjVW3eoV-XlC5lM0hVYdA&code_challenge_method=S256&site_id=501430&instance_aware=true",
      "time_usec" : 1773970521495642,
      "visit_count" : 1
    },
    {
      "url" : "https://aka.ms/portalfx/zerosub/freetrial",
      "time_usec" : 1773970541390040,
      "visit_count" : 1,
      "destination_url" : "https://azure.microsoft.com/en-us/pricing/purchase-options/azure-account?icid=portal",
      "destination_time_usec" : 1773970541390256
    },
    {
      "url" : "https://azure.microsoft.com/en-us/pricing/purchase-options/azure-account?icid=portal",
      "time_usec" : 1773970541390256,
      "visit_count" : 1,
      "title" : "Create Your Azure Free Account Or Pay As You Go | Microsoft Azure",
      "source_url" : "https://aka.ms/portalfx/zerosub/freetrial",
      "source_time_usec" : 1773970541390040
    },
    {
      "url" : "https://go.microsoft.com/fwlink/?linkid=2227353&clcid=0x409&l=en-us&icid=portal&ref=sandbox-1.reactblade.portal.azure.net&hasfullconsent=true",
      "time_usec" : 1773970547361546,
      "visit_count" : 1,
      "destination_url" : "https://signup.azure.com/signup?offer=ms-azr-0044p&appId=102&l=en-us&icid=portal&ref=sandbox-1.reactblade.portal.azure.net&hasfullconsent=true",
      "destination_time_usec" : 1773970547361669
    },
    {
      "url" : "https://login.windows.net/organizations/oauth2/v2.0/authorize?client_id=8e0e8db5-b713-4e91-98e6-470fed0aa4c2&response_type=code%20id_token&scope=openid%20profile&state=OpenIdConnect.AuthenticationProperties%3D5BtdI47NMy5SN9kzah2LJqyXLY_5aGvgaD0vZ4o-fkxqrxdyj98V9GfonpRpSPDg3bpC_Fwo3EBZajDZeU29syru2c__JVTDRKQ9jFbj4KfU1OboXOxQUjtNKtzP1mxmf3SpuSJZB22-1G_RjehF8IgDtEagWr3KF1PxF_OFSr1JhEBIAwJtWTgklzz4-p5vgRAPs9SB4ZzW6Q9CTE8sPT63k0puztjBm0efIzbO0IuDxhrFp9_RIrmWtg78p4_bLTTHkm-B1POXeGdyybiUp958PeEYJM7ntvZbDzT-halJwDas_xINC6BRStKYDAOo7LWfZAIc8BPf8YsEKRfa6lMlPxbMIXB07tKK0czD0HAV89gcyBKLNoAt8nU7VzbDrm5MGClTf2NhGcd1F238c6by76q62hy763q1FnJRzIA9mJlFJMZ63yGbARktGGo3&response_mode=form_post&nonce=639095673487926743.MTYwZThiYWYtMzI1Zi00MWFjLTkyYWUtNDgxN2RiMmViNTI0ZDkxZDdiYWQtYjBiYy00NGMyLWI0YjktM2YzMzY5ZjA5ODlj&redirect_uri=https%3A%2F%2Fsignup.azure.com%2Fapi%2Fuser%2Flogin&max_age=86400&post_logout_redirect_uri=https%3A%2F%2Fsignup.azure.com%2Fsignup%3Foffer%3Dms-azr-0044p%26appId%3D102%26l%3Den-us%26icid%3Dportal%26ref%3Dsandbox-1.reactblade.portal.azure.net%26hasfullconsent%3Dtrue&x-client-SKU=ID_NET472&x-client-ver=8.3.0.0",
      "time_usec" : 1773970550789965,
      "visit_count" : 1,
      "destination_url" : "https://login.live.com/oauth20_authorize.srf?scope=openid+profile+email+offline_access&response_type=code&client_id=51483342-085c-4d86-bf88-cf50c7252078&response_mode=form_post&redirect_uri=https%3a%2f%2flogin.microsoftonline.com%2fcommon%2ffederation%2foauth2msa&state=rQQIARAAjZO_a-N2AMWtOL8cejknlPaGQgM9aCnI_uqH9SNwFMuyHNmW7NhyHGkR-m3JtqRIXyeWhpLl4Ci0ZL6tvaGQQjm6tGS6oVOmg9KlhTZbS5eWm7K1ufsLurw3vM_23tvaYCpEBVTAx0W8AvYfMg5wGNusoSaNESjpsBjKMg6FkjRwHRsYBmnhye5W-dPHvx5_87vf-Oxdb5t_1XSeIiV95p86FSuaXyIfTiCM0_1qNfW9cBFXjHyRvImqRuxXF6mTVGeR54c_IMhLBPkTQc5XkMuVlCJYwNYomiAZmsUpmiQqkqKeacrEV8cqlHIR03wApLEQdJVppo5HUOa9pYwPfGl-5MuKCDR-utR4-44_hGrA-WoGgNySsu5YBGowhRKu5lKu1rSgXuvxs-CXlfu9-gJO8NcSJX7uvFopuVEy1-MohU-LfxR7sROKdiMKQ8eCldeYE0LfMqAfhf0kip0E-k76qMZBWyRpWcpqQ5md5sYE77ZPsuOuqteM1qln8OBUIyPUnS5PkqWdBSxzxLbcKIwH8bDPe4QZN3ThLCKanGYEvOaMcDbNkgVu6Xr7SOEHnUM2EMyA7LgjrGdGx73l4SiAcgfmfWy-nLvEMF4M2xqH4yjW0geBMxEY0eNh0_DGCdERsP5S0HvCMMHakyYn1s_acKx401mek2hcO_UG9X7KDjlSy8fUIdtQmkzaVyhiCuJFDgNuDhxXzM0eEBf8cpIIMasPxGQ-hh7NxKRudhXlYDpHOazfO3ZadpaZ_ihma0zfaaptiQ7hqWbyuYJOjFn7jDdSfSnKDYobDGFH5eu9iO6OXa0uWgzXdxk1bXYGrkHNpFl_aUriMQdo2OkAK-fBQf2IYT0r4zpdOapDJhzRR7nJJ_Oa1GrMFBeXJy3LxgScYCzKzGjqhMInd0acYELYHuRinZ23Z0Jb0igia5n1wRS2WhHxXfFelHhG6Odvmk2vig8BIABFmQbKAICjLI2zqOmwFkrTLuY4NmWZLHVd3L6bQOjbe3ESuf7MebF6_mzt5Sry1-o7m5vl4oPCXuGjt8Ha_ubmVvn-g429wu0q8tXa3YN-ev_zL_Kvtd7Vz70Pzt_jCtdr1VylDkhsYssuPTw2xjRvC9kCp6lqX4jgcMa0u65HpU2nHqmPqH3sYh25WF-_Xi-JvC43FZLG_1lHnmwUrkr_93_P30Je3Cvcbl_efPvs4scv_z54Xi7clAvXO6XS7vf_fiI8_u3gZqdwu1N-slv4Dw2&username=mike_p32%40hotmail.com&max_age=0&estsfed=1&uaid=58db857edfab43698a17670e44f24565&cobrandid=788a943c-8e34-4c0a-9c83-1e4ef0322879&fci=8e0e8db5-b713-4e91-98e6-470fed0aa4c2#",
      "destination_time_usec" : 1773970550790207
    },
    {
      "url" : "https://login.live.com/oauth20_authorize.srf?scope=openid+profile+email+offline_access&response_type=code&client_id=51483342-085c-4d86-bf88-cf50c7252078&response_mode=form_post&redirect_uri=https%3a%2f%2flogin.microsoftonline.com%2fcommon%2ffederation%2foauth2msa&state=rQQIARAAjZO_a-N2AMWtOL8cejknlPaGQgM9aCnI_uqH9SNwFMuyHNmW7NhyHGkR-m3JtqRIXyeWhpLl4Ci0ZL6tvaGQQjm6tGS6oVOmg9KlhTZbS5eWm7K1ufsLurw3vM_23tvaYCpEBVTAx0W8AvYfMg5wGNusoSaNESjpsBjKMg6FkjRwHRsYBmnhye5W-dPHvx5_87vf-Oxdb5t_1XSeIiV95p86FSuaXyIfTiCM0_1qNfW9cBFXjHyRvImqRuxXF6mTVGeR54c_IMhLBPkTQc5XkMuVlCJYwNYomiAZmsUpmiQqkqKeacrEV8cqlHIR03wApLEQdJVppo5HUOa9pYwPfGl-5MuKCDR-utR4-44_hGrA-WoGgNySsu5YBGowhRKu5lKu1rSgXuvxs-CXlfu9-gJO8NcSJX7uvFopuVEy1-MohU-LfxR7sROKdiMKQ8eCldeYE0LfMqAfhf0kip0E-k76qMZBWyRpWcpqQ5md5sYE77ZPsuOuqteM1qln8OBUIyPUnS5PkqWdBSxzxLbcKIwH8bDPe4QZN3ThLCKanGYEvOaMcDbNkgVu6Xr7SOEHnUM2EMyA7LgjrGdGx73l4SiAcgfmfWy-nLvEMF4M2xqH4yjW0geBMxEY0eNh0_DGCdERsP5S0HvCMMHakyYn1s_acKx401mek2hcO_UG9X7KDjlSy8fUIdtQmkzaVyhiCuJFDgNuDhxXzM0eEBf8cpIIMasPxGQ-hh7NxKRudhXlYDpHOazfO3ZadpaZ_ihma0zfaaptiQ7hqWbyuYJOjFn7jDdSfSnKDYobDGFH5eu9iO6OXa0uWgzXdxk1bXYGrkHNpFl_aUriMQdo2OkAK-fBQf2IYT0r4zpdOapDJhzRR7nJJ_Oa1GrMFBeXJy3LxgScYCzKzGjqhMInd0acYELYHuRinZ23Z0Jb0igia5n1wRS2WhHxXfFelHhG6Odvmk2vig8BIABFmQbKAICjLI2zqOmwFkrTLuY4NmWZLHVd3L6bQOjbe3ESuf7MebF6_mzt5Sry1-o7m5vl4oPCXuGjt8Ha_ubmVvn-g429wu0q8tXa3YN-ev_zL_Kvtd7Vz70Pzt_jCtdr1VylDkhsYssuPTw2xjRvC9kCp6lqX4jgcMa0u65HpU2nHqmPqH3sYh25WF-_Xi-JvC43FZLG_1lHnmwUrkr_93_P30Je3Cvcbl_efPvs4scv_z54Xi7clAvXO6XS7vf_fiI8_u3gZqdwu1N-slv4Dw2&username=mike_p32%40hotmail.com&max_age=0&estsfed=1&uaid=58db857edfab43698a17670e44f24565&cobrandid=788a943c-8e34-4c0a-9c83-1e4ef0322879&fci=8e0e8db5-b713-4e91-98e6-470fed0aa4c2#",
      "time_usec" : 1773970550790207,
      "visit_count" : 1,
      "source_url" : "https://login.windows.net/organizations/oauth2/v2.0/authorize?client_id=8e0e8db5-b713-4e91-98e6-470fed0aa4c2&response_type=code%20id_token&scope=openid%20profile&state=OpenIdConnect.AuthenticationProperties%3D5BtdI47NMy5SN9kzah2LJqyXLY_5aGvgaD0vZ4o-fkxqrxdyj98V9GfonpRpSPDg3bpC_Fwo3EBZajDZeU29syru2c__JVTDRKQ9jFbj4KfU1OboXOxQUjtNKtzP1mxmf3SpuSJZB22-1G_RjehF8IgDtEagWr3KF1PxF_OFSr1JhEBIAwJtWTgklzz4-p5vgRAPs9SB4ZzW6Q9CTE8sPT63k0puztjBm0efIzbO0IuDxhrFp9_RIrmWtg78p4_bLTTHkm-B1POXeGdyybiUp958PeEYJM7ntvZbDzT-halJwDas_xINC6BRStKYDAOo7LWfZAIc8BPf8YsEKRfa6lMlPxbMIXB07tKK0czD0HAV89gcyBKLNoAt8nU7VzbDrm5MGClTf2NhGcd1F238c6by76q62hy763q1FnJRzIA9mJlFJMZ63yGbARktGGo3&response_mode=form_post&nonce=639095673487926743.MTYwZThiYWYtMzI1Zi00MWFjLTkyYWUtNDgxN2RiMmViNTI0ZDkxZDdiYWQtYjBiYy00NGMyLWI0YjktM2YzMzY5ZjA5ODlj&redirect_uri=https%3A%2F%2Fsignup.azure.com%2Fapi%2Fuser%2Flogin&max_age=86400&post_logout_redirect_uri=https%3A%2F%2Fsignup.azure.com%2Fsignup%3Foffer%3Dms-azr-0044p%26appId%3D102%26l%3Den-us%26icid%3Dportal%26ref%3Dsandbox-1.reactblade.portal.azure.net%26hasfullconsent%3Dtrue&x-client-SKU=ID_NET472&x-client-ver=8.3.0.0",
      "source_time_usec" : 1773970550789965
    },
    {
      "url" : "https://github.com/login/oauth/authorize?response_type=code&client_id=e37ffdec11c0245cb2e0&scope=read:user++user:email&redirect_uri=https://login.live.com/HandleGithubResponse.srf&allow_signup=false&state=20C5DA5AD424DE07",
      "time_usec" : 1773970553850736,
      "visit_count" : 1,
      "destination_url" : "https://login.live.com/HandleGithubResponse.srf?code=566efec2c66288d72eb4&state=20C5DA5AD424DE07",
      "destination_time_usec" : 1773970553850885
    },
    {
      "url" : "https://login.live.com/HandleGithubResponse.srf?code=566efec2c66288d72eb4&state=20C5DA5AD424DE07",
      "time_usec" : 1773970553850885,
      "visit_count" : 1,
      "title" : "Continue",
      "source_url" : "https://github.com/login/oauth/authorize?response_type=code&client_id=e37ffdec11c0245cb2e0&scope=read:user++user:email&redirect_uri=https://login.live.com/HandleGithubResponse.srf&allow_signup=false&state=20C5DA5AD424DE07",
      "source_time_usec" : 1773970553850736,
      "destination_url" : "https://login.microsoftonline.com/common/federation/oauth2msa",
      "destination_time_usec" : 1773970554302388
    },
    {
      "url" : "https://login.windows.net/d8b1b66d-91a4-4e9d-b7dd-c5bd4a51951a/oauth2/v2.0/authorize?client_id=8e0e8db5-b713-4e91-98e6-470fed0aa4c2&response_type=code%20id_token&scope=openid%20profile&state=OpenIdConnect.AuthenticationProperties%3DQGw4ioISIMec1UQnMLJdxzJnHby1m5wN_TQqV_M4QGZQr93twWfskD6MGxaCkyuKLdtS9J5yIUIuWyQshcoWJTVlB3faFAQk1lZyeZB0LCMd5_DzRagDUAc5a8SxCdZ_LuGNh2wzu3Gi0KZZ_OypagpIqReaCnK5sAAK-Tf1fe98lhn2Yusqx82pXtdisb4ZBCN_YnDt3990mLbo_gtRgDqFpPLEKO1ngAn8-1liD8h7wgLwTdihktPvA95tinv1aTKLZewV1IrdtMoLPrYwGH8ZyE1PvCvpXgUV8lV3QEwfNnvqCsSkb-5iLRMc7rBzMyfpFDl_slhCQucLU35PJ4B21nc-KY_jssVdd1XGH7q0oCX7ZVt2OqtX1x5SkX4TammP15fpnvR8lO9uPjpenaN4EvOSLkSGIBNw9tVpXPBIc8i6qHs5RAvFy8IJ44nF&response_mode=form_post&nonce=639095673705393908.NzljOGU3NzgtOWQwNC00YTIwLTgzOGYtYjhmOTQ5MjMyNDdkNTBjYjEzMjMtYzYzNC00MDNhLTgyMmItODJmYTdlN2ViYjY3&redirect_uri=https%3A%2F%2Fsignup.azure.com%2Fapi%2Fuser%2Flogin&login_hint=mike_p32%40hotmail.com&acr_values=urn%3Amicrosoft%3Apolicies%3Amfa&max_age=86400&post_logout_redirect_uri=https%3A%2F%2Fsignup.azure.com%2Fsignup%3Foffer%3Dms-azr-0044p%26appId%3D102%26l%3Den-us%26icid%3Dportal%26ref%3Dsandbox-1.reactblade.portal.azure.net%26hasfullconsent%3Dtrue&x-client-SKU=ID_NET472&x-client-ver=8.3.0.0",
      "time_usec" : 1773970571224259,
      "visit_count" : 1,
      "destination_url" : "https://login.live.com/oauth20_authorize.srf?scope=openid+profile+email+offline_access&response_type=code&client_id=51483342-085c-4d86-bf88-cf50c7252078&response_mode=form_post&redirect_uri=https%3a%2f%2flogin.microsoftonline.com%2fcommon%2ffederation%2foauth2msa&state=rQQIARAAjZRNaNsGFMetOEnz0Q-3lFF2ykZgo51sfX8EArPlL9mSbNmOY5mB0Ldky5JsyVas0xijFHZJt57CLu0uYzAoPZUeRmFjh5wKOww2GFvH1pFDW3oKO80p7LbD4PHg8f48Hrz_722co7JoFspC19NIFtrZpgzIoHQVB1USRkHMoGGQpgwCxEjINHRIUTANmVzZyHx8-OUn2SOh_uCb75W3T2rBEbAuu87MyGr-6CvgHTuKgnAnlwsdy5sGWSWZTl63ckrg5KahMcm5vuV4DwHgCQD8BQCfLl0dOUNDDlDkfduPRorjvp60FBIoDdE4QaIkhKP0oqCyQuIOGpU9VEisqLEvxgIDQVKHjbmOlTQqUiQN7FGjI-L8gJ8LRX0odAoDaVBKFnUkJVJypueLgr3Qz_kRGzWKtZHU0V0B6TrSQEJ_WrrUyE8jGzlL_sRJjFdL66Y_GcmBH0ZH6WfpRmB4rM74nmdoUfZMZniRoymR43vNiR8Yk8gxwl2xEmOOz7ZZ3tDgPdHjuZp-kNS8qjqHR3gsyB1x3JV5TKz0xQmNRvG-GQ6LBF85UJjhfFrn9KhN1_A5u8dO9-diaGv-fq3TdQuoqZTz4hB2-3OjX4A4htdxuZi0FKu4l9dwhWofMHpf5qYVwUbiZIpWHKje78uNeaBYATtuGQrj1fEwn6-DHRM2DZpybQ-RpuH4gEKCXqQ7oYr1C4wgS14xQmkaGnGqL1tRyyqOy0GTK9UbsGflPQqEXadI2WRscXFHd-xh1JzlaTxyvBmsdOpc34i7MDvRI97nmhMprlSp_rwEN2fMLOhZe13K7aJiKTYFbzZmwvZQBXGHa_EaOSkk_NwMykVXDl2bEacat4fizRpWQGBPA-uSPAjDrq7DvUqVHEM-0yP73QhpjKMefIC3hz2so4xGTRg3A2_WotwGPW0OFndTBKw0a7S5YbvCFoSYjrpBr1lgNcohxtUQb-Vn5TnF1jDMKz9Ib-uUCqsEoYM0rGBnPOgLMnQd1HBVxxQcpnFYeZTehiAUIghVASkIQkCaRGhQNWgNJEkTNgyd0FSaOE5fXDjDc_StYOKbjms8Tf-n6R8uA4-XP_xi5ckycLL8xtpaJn0ttZV69yq0srO2tpG5dO3cVup0Gbi3ssDwT-aDH2__8Dfz-Yvnd96krqeOV3KJRFQx2NYFk2z3lH2yqJfnU4Qkcs2yH7VdqsaZFhGWjLwv7VI78OEqcLi6ery6zhZlodTBSOTlKnDrHPBo_f9C_HRzscgwuPvHnZ9p7p60uf3b71-LJ5sZCIJgokRBZaaUh0pw6dXm2r8f4qPzF9ZSV9bXnz5_lnnr5i_V--eBxxdSpxc_-_blzdvf3X1RPbn0XtUKW0RhnBfZJNdXb_Ba0pUcnjmQ4tqomospxmaHliTdyPXC3fuZ1K-LuJw6vZy5dSX1Dw2&login_hint=mike_p32%40hotmail.com&estsfed=1&uaid=8ba890849a2e4b4eb2bec66122ea4a70&cobrandid=788a943c-8e34-4c0a-9c83-1e4ef0322879&fci=8e0e8db5-b713-4e91-98e6-470fed0aa4c2&acr_values=urn%3amicrosoft%3apolicies%3amfa#",
      "destination_time_usec" : 1773970571224517
    },
    {
